{"results":[{"title": "Kayanuma Tomari Village","title_jp": "とまりむら かやぬま","description": "","creator": "mext","feed": "http://www.rdtn.org/feeds/station/1010000001.json","location": {"lon":140.498604, "lat":43.057419, "name": "Hokkaido"},"id":1010000001,"datastreams": [{"at": "2011-07-09 04:30:00","max_value": "0","min_value": "0","current_value": "33","id": "2859494","unit": {"type": "basicSI","label": "nano Gray per hour","symbol": "nGy/h"}}]},{"title": "Hattari Kyowa Town","title_jp": "きょうわちょう はったり","description": "","creator": "mext","feed": "http://www.rdtn.org/feeds/station/1010000002.json","location": {"lon":140.5688791, "lat":43.01603644, "name": "Hokkaido"},"id":1010000002,"datastreams": [{"at": "2011-07-09 04:40:00","max_value": "0","min_value": "0","current_value": "35","id": "2859673","unit": {"type": "basicSI","label": "nano Gray per hour","symbol": "nGy/h"}}]},{"title": "Minami-Horoni Kyowa Town","title_jp": "きょうわちょう みなみほろに","description": "","creator": "mext","feed": "http://www.rdtn.org/feeds/station/1010000003.json","location": {"lon":140.6124891, "lat":42.98187503, "name": "Hokkaido"},"id":1010000003,"datastreams": [{"at": "2011-07-09 04:20:00","max_value": "0","min_value": "0","current_value": "31","id": "2859279","unit": {"type": "basicSI","label": "nano Gray per hour","symbol": "nGy/h"}}]},{"title": "Iwanai Iwanai Town","title_jp": "いわないちょう いわない","description": "","creator": "mext","feed": "http://www.rdtn.org/feeds/station/1010000004.json","location": {"lon":140.510553, "lat":42.97937341, "name": "Hokkaido"},"id":1010000004,"datastreams": [{"at": "2011-07-09 04:30:00","max_value": "0","min_value": "0","current_value": "35","id": "2859496","unit": {"type": "basicSI","label": "nano Gray per hour","symbol": "nGy/h"}}]},{"title": "Kamoenai Kamoenai Village","title_jp": "かもえないむら かもえない","description": "","creator": "mext","feed": "http://www.rdtn.org/feeds/station/1010000005.json","location": {"lon":140.421104, "lat":43.14740644, "name": "Hokkaido"},"id":1010000005,"datastreams": [{"at": "2011-07-09 04:40:00","max_value": "0","min_value": "0","current_value": "31","id": "2859674","unit": {"type": "basicSI","label": "nano Gray per hour","symbol": "nGy/h"}}]},{"title": "Chatsu Tomari Village","title_jp": "とまりむら ちゃつ","description": "","creator": "mext","feed": "http://www.rdtn.org/feeds/station/1010000006.json","location": {"lon":140.50916, "lat":43.04297639, "name": "Hokkaido"},"id":1010000006,"datastreams": [{"at": "2011-07-09 04:30:00","max_value": "0","min_value": "0","current_value": "35","id": "2859498","unit": {"type": "basicSI","label": "nano Gray per hour","symbol": "nGy/h"}}]},{"title": "Herokaruusu Tomari Village","title_jp": "とまりむら へろかるうす","description": "","creator": "mext","feed": "http://www.rdtn.org/feeds/station/1010000007.json","location": {"lon":140.5230482, "lat":43.03769941, "name": "Hokkaido"},"id":1010000007,"datastreams": [{"at": "2011-07-09 04:30:00","max_value": "0","min_value": "0","current_value": "33","id": "2859499","unit": {"type": "basicSI","label": "nano Gray per hour","symbol": "nGy/h"}}]},{"title": "Horikappu Jinja Tomari Village","title_jp": "とまりむら ほりかっぷじんじゃ","description": "","creator": "mext","feed": "http://www.rdtn.org/feeds/station/1010000008.json","location": {"lon":140.5222153, "lat":43.03186676, "name": "Hokkaido"},"id":1010000008,"datastreams": [{"at": "2011-07-09 04:30:00","max_value": "0","min_value": "0","current_value": "31","id": "2859500","unit": {"type": "basicSI","label": "nano Gray per hour","symbol": "nGy/h"}}]},{"title": "The Meteorological Obsevatory of Kyowa Town","title_jp": "きょうわちょう きしょうかんそくきょく","description": "","creator": "mext","feed": "http://www.rdtn.org/feeds/station/1010000009.json","location": {"lon":140.5369363, "lat":43.03131158, "name": "Hokkaido"},"id":1010000009,"datastreams": [{"at": "2011-07-09 04:20:00","max_value": "0","min_value": "0","current_value": "36","id": "2859285","unit": {"type": "basicSI","label": "nano Gray per hour","symbol": "nGy/h"}}]},{"title": "Obuchi Rokkasho Village","title_jp": "ろっかしょむら おぶち","description": "","creator": "mext","feed": "http://www.rdtn.org/feeds/station/1020000001.json","location": {"lon":141.3714192, "lat":40.96516876, "name": "Aomori"},"id":1020000001,"datastreams": [{"at": "2011-07-09 04:20:00","max_value": "0","min_value": "0","current_value": "23","id": "2859286","unit": {"type": "basicSI","label": "nano Gray per hour","symbol": "nGy/h"}}]},{"title": "Chitose-daira Rokkasho Village","title_jp": "ろっかしょむら ちとせだいら","description": "","creator": "mext","feed": "http://www.rdtn.org/feeds/station/1020000002.json","location": {"lon":141.2858736, "lat":40.88740268, "name": "Aomori"},"id":1020000002,"datastreams": [{"at": "2011-07-09 04:20:00","max_value": "0","min_value": "0","current_value": "23","id": "2859287","unit": {"type": "basicSI","label": "nano Gray per hour","symbol": "nGy/h"}}]},{"title": "Hiranuma Rokkasho Village","title_jp": "ろっかしょむら ひらぬま","description": "","creator": "mext","feed": "http://www.rdtn.org/feeds/station/1020000003.json","location": {"lon":141.3669774, "lat":40.87518058, "name": "Aomori"},"id":1020000003,"datastreams": [{"at": "2011-07-09 04:30:00","max_value": "0","min_value": "0","current_value": "22","id": "2859502","unit": {"type": "basicSI","label": "nano Gray per hour","symbol": "nGy/h"}}]},{"title": "Tomari Rokkasho Village","title_jp": "ろっかしょむら とまり","description": "","creator": "mext","feed": "http://www.rdtn.org/feeds/station/1020000004.json","location": {"lon":141.3914152, "lat":41.08793502, "name": "Aomori"},"id":1020000004,"datastreams": [{"at": "2011-07-09 04:30:00","max_value": "0","min_value": "0","current_value": "20","id": "2859503","unit": {"type": "basicSI","label": "nano Gray per hour","symbol": "nGy/h"}}]},{"title": "Fukkoshi Yokohama Town","title_jp": "よこはままち ふっこし","description": "","creator": "mext","feed": "http://www.rdtn.org/feeds/station/1020000005.json","location": {"lon":141.2464265, "lat":41.02821473, "name": "Aomori"},"id":1020000005,"datastreams": [{"at": "2011-07-09 04:30:00","max_value": "0","min_value": "0","current_value": "22","id": "2859504","unit": {"type": "basicSI","label": "nano Gray per hour","symbol": "nGy/h"}}]},{"title": "Aomori Aomori City","title_jp": "あおもりし あおもり","description": "","creator": "mext","feed": "http://www.rdtn.org/feeds/station/1020000006.json","location": {"lon":140.7917493, "lat":40.83017137, "name": "Aomori"},"id":1020000006,"datastreams": [{"at": "2011-07-09 04:10:00","max_value": "0","min_value": "0","current_value": "27","id": "2859073","unit": {"type": "basicSI","label": "nano Gray per hour","symbol": "nGy/h"}}]},{"title": "Odanosawa Higashidoori Village","title_jp": "ひがしどおりむら おだのさわ","description": "","creator": "mext","feed": "http://www.rdtn.org/feeds/station/1020000010.json","location": {"lon":141.4008525, "lat":41.22569868, "name": "Aomori"},"id":1020000010,"datastreams": [{"at": "2011-07-09 04:20:00","max_value": "0","min_value": "0","current_value": "19","id": "2859292","unit": {"type": "basicSI","label": "nano Gray per hour","symbol": "nGy/h"}}]},{"title": "Oippe Higashidoori Village","title_jp": "ひがしどおりむら おいっぺ","description": "","creator": "mext","feed": "http://www.rdtn.org/feeds/station/1020000011.json","location": {"lon":141.3853012, "lat":41.15681839, "name": "Aomori"},"id":1020000011,"datastreams": [{"at": "2011-07-09 04:30:00","max_value": "0","min_value": "0","current_value": "19","id": "2859507","unit": {"type": "basicSI","label": "nano Gray per hour","symbol": "nGy/h"}}]},{"title": "Chikagawa Mutu City","title_jp": "むつし ちかがわ","description": "","creator": "mext","feed": "http://www.rdtn.org/feeds/station/1020000012.json","location": {"lon":141.2789177, "lat":41.19792189, "name": "Aomori"},"id":1020000012,"datastreams": [{"at": "2011-07-09 04:30:00","max_value": "0","min_value": "0","current_value": "23","id": "2859508","unit": {"type": "basicSI","label": "nano Gray per hour","symbol": "nGy/h"}}]},{"title": "Misawa City hall Misawa City","title_jp": "みさわし みさわしやくしょ","description": "","creator": "mext","feed": "http://www.rdtn.org/feeds/station/1020000021.json","location": {"lon":141.3694841, "lat":40.68027778, "name": "Aomori"},"id":1020000021,"datastreams": [{"at": "2011-07-09 04:30:00","max_value": "-888","min_value": "-888","current_value": "26","id": "2859509","unit": {"type": "basicSI","label": "nano Gray per hour","symbol": "nGy/h"}}]},{"title": "Touhoku Town office Touhoku Town","title_jp": "とうほくまち とうほくまちやくば","description": "","creator": "mext","feed": "http://www.rdtn.org/feeds/station/1020000022.json","location": {"lon":141.2575488, "lat":40.72852846, "name": "Aomori"},"id":1020000022,"datastreams": [{"at": "2011-07-09 04:20:00","max_value": "-888","min_value": "-888","current_value": "17","id": "2859296","unit": {"type": "basicSI","label": "nano Gray per hour","symbol": "nGy/h"}}]},{"title": "Touhoku Branch office Touhoku Town","title_jp": "とうほくまち とうほくぶんちょうしゃ","description": "","creator": "mext","feed": "http://www.rdtn.org/feeds/station/1020000023.json","location": {"lon":141.2180113, "lat":40.77841074, "name": "Aomori"},"id":1020000023,"datastreams": [{"at": "2011-07-09 04:20:00","max_value": "-888","min_value": "-888","current_value": "19","id": "2859297","unit": {"type": "basicSI","label": "nano Gray per hour","symbol": "nGy/h"}}]},{"title": "Noheji Town office Noheji Town","title_jp": "のへじまち のへじまちやくば","description": "","creator": "mext","feed": "http://www.rdtn.org/feeds/station/1020000024.json","location": {"lon":141.1289439, "lat":40.86462191, "name": "Aomori"},"id":1020000024,"datastreams": [{"at": "2011-07-09 04:30:00","max_value": "-888","min_value": "-888","current_value": "21","id": "2859510","unit": {"type": "basicSI","label": "nano Gray per hour","symbol": "nGy/h"}}]},{"title": "Yokohama Town office Yokohama Town","title_jp": "よこはままち よこはままちやくば","description": "","creator": "mext","feed": "http://www.rdtn.org/feeds/station/1020000025.json","location": {"lon":141.2476288, "lat":41.0831408, "name": "Aomori"},"id":1020000025,"datastreams": [{"at": "2011-07-09 04:40:00","max_value": "-888","min_value": "-888","current_value": "22","id": "2859675","unit": {"type": "basicSI","label": "nano Gray per hour","symbol": "nGy/h"}}]},{"title": "Sunagomata Higasidoori Village","title_jp": "ひがしどおりむら すなごまた","description": "","creator": "mext","feed": "http://www.rdtn.org/feeds/station/1020000026.json","location": {"lon":141.3305775, "lat":41.27708125, "name": "Aomori"},"id":1020000026,"datastreams": [{"at": "2011-07-09 04:30:00","max_value": "0","min_value": "0","current_value": "22","id": "2859512","unit": {"type": "basicSI","label": "nano Gray per hour","symbol": "nGy/h"}}]},{"title": "Ishigami Tokai","title_jp": "とうかいむら いしがみ","description": "","creator": "mext","feed": "http://www.rdtn.org/feeds/station/1080000001.json","location": {"lon":140.571664, "lat":36.48732521, "name": "Ibaraki"},"id":1080000001,"datastreams": [{"at": "2011-07-09 04:40:00","max_value": "-888","min_value": "-888","current_value": "123","id": "2859682","unit": {"type": "basicSI","label": "nano Gray per hour","symbol": "nGy/h"}}]},{"title": "Toyooka Tokai Village","title_jp": "とうかいむら とよおか","description": "","creator": "mext","feed": "http://www.rdtn.org/feeds/station/1080000002.json","location": {"lon":140.6022175, "lat":36.47899318, "name": "Ibaraki"},"id":1080000002,"datastreams": [{"at": "2011-07-09 04:30:00","max_value": "-888","min_value": "-888","current_value": "117","id": "2859538","unit": {"type": "basicSI","label": "nano Gray per hour","symbol": "nGy/h"}}]},{"title": "Funaishikawa Tokai","title_jp": "とうかいむら ふないしかわ","description": "","creator": "mext","feed": "http://www.rdtn.org/feeds/station/1080000003.json","location": {"lon":140.5544435, "lat":36.46760444, "name": "Ibaraki"},"id":1080000003,"datastreams": [{"at": "2011-07-09 04:30:00","max_value": "-888","min_value": "-888","current_value": "75","id": "2859539","unit": {"type": "basicSI","label": "nano Gray per hour","symbol": "nGy/h"}}]},{"title": "City Yokobori Naka","title_jp": "なかし よこぼり","description": "","creator": "mext","feed": "http://www.rdtn.org/feeds/station/1080000004.json","location": {"lon":140.5200024, "lat":36.46538204, "name": "Ibaraki"},"id":1080000004,"datastreams": [{"at": "2011-07-09 04:30:00","max_value": "-888","min_value": "-888","current_value": "79","id": "2859540","unit": {"type": "basicSI","label": "nano Gray per hour","symbol": "nGy/h"}}]},{"title": "Oshinobe Tokai Village","title_jp": "とうかいむら おしのべ","description": "","creator": "mext","feed": "http://www.rdtn.org/feeds/station/1080000005.json","location": {"lon":140.569443, "lat":36.45010699, "name": "Ibaraki"},"id":1080000005,"datastreams": [{"at": "2011-07-09 04:30:00","max_value": "0","min_value": "0","current_value": "90","id": "2859541","unit": {"type": "basicSI","label": "nano Gray per hour","symbol": "nGy/h"}}]},{"title": "Muramatsu Tokai-mura","title_jp": "とうかいむら むらまつ","description": "","creator": "mext","feed": "http://www.rdtn.org/feeds/station/1080000006.json","location": {"lon":140.5961074, "lat":36.44955213, "name": "Ibaraki"},"id":1080000006,"datastreams": [{"at": "2011-07-09 04:30:00","max_value": "-888","min_value": "-888","current_value": "120","id": "2859542","unit": {"type": "basicSI","label": "nano Gray per hour","symbol": "nGy/h"}}]},{"title": "Mawatari Hitachinaka City","title_jp": "ひたちなかし まわたり","description": "","creator": "mext","feed": "http://www.rdtn.org/feeds/station/1080000007.json","location": {"lon":140.571388, "lat":36.41149955, "name": "Ibaraki"},"id":1080000007,"datastreams": [{"at": "2011-07-09 04:30:00","max_value": "-888","min_value": "-888","current_value": "125","id": "2859543","unit": {"type": "basicSI","label": "nano Gray per hour","symbol": "nGy/h"}}]},{"title": "Town Ooarai Onuki","title_jp": "おおあらいまち おおぬき","description": "","creator": "mext","feed": "http://www.rdtn.org/feeds/station/1080000008.json","location": {"lon":140.5525035, "lat":36.30845677, "name": "Ibaraki"},"id":1080000008,"datastreams": [{"at": "2011-07-09 04:40:00","max_value": "0","min_value": "0","current_value": "124","id": "2859683","unit": {"type": "basicSI","label": "nano Gray per hour","symbol": "nGy/h"}}]},{"title": "Hiroura town Ibaraki","title_jp": "いばらきまち ひろうら","description": "","creator": "mext","feed": "http://www.rdtn.org/feeds/station/1080000009.json","location": {"lon":140.5108415, "lat":36.29317957, "name": "Ibaraki"},"id":1080000009,"datastreams": [{"at": "2011-07-09 04:30:00","max_value": "-888","min_value": "-888","current_value": "146","id": "2859545","unit": {"type": "basicSI","label": "nano Gray per hour","symbol": "nGy/h"}}]},{"title": "Tsukuriya Hokota City","title_jp": "ほこたし つくりや","description": "","creator": "mext","feed": "http://www.rdtn.org/feeds/station/1080000010.json","location": {"lon":140.5108449, "lat":36.23846443, "name": "Ibaraki"},"id":1080000010,"datastreams": [{"at": "2011-07-09 04:30:00","max_value": "-888","min_value": "-888","current_value": "152","id": "2859546","unit": {"type": "basicSI","label": "nano Gray per hour","symbol": "nGy/h"}}]},{"title": "Araji Hokota City","title_jp": "ほこたし あらじ","description": "","creator": "mext","feed": "http://www.rdtn.org/feeds/station/1080000011.json","location": {"lon":140.5469537, "lat":36.23041101, "name": "Ibaraki"},"id":1080000011,"datastreams": [{"at": "2011-07-09 04:30:00","max_value": "-888","min_value": "-888","current_value": "128","id": "2859547","unit": {"type": "basicSI","label": "nano Gray per hour","symbol": "nGy/h"}}]},{"title": "Hitachinaka Hitachinaka City","title_jp": "ひたちなかし ひたちなか","description": "","creator": "mext","feed": "http://www.rdtn.org/feeds/station/1080000012.json","location": {"lon":140.5924971, "lat":36.39677921, "name": "Ibaraki"},"id":1080000012,"datastreams": [{"at": "2011-07-09 04:30:00","max_value": "-888","min_value": "-888","current_value": "179","id": "2859548","unit": {"type": "basicSI","label": "nano Gray per hour","symbol": "nGy/h"}}]},{"title": "Ajigaura Hitachinaka City","title_jp": "ひたちなかし あじがうら","description": "","creator": "mext","feed": "http://www.rdtn.org/feeds/station/1080000013.json","location": {"lon":140.6074953, "lat":36.38733605, "name": "Ibaraki"},"id":1080000013,"datastreams": [{"at": "2011-07-09 04:30:00","max_value": "-888","min_value": "-888","current_value": "116","id": "2859549","unit": {"type": "basicSI","label": "nano Gray per hour","symbol": "nGy/h"}}]},{"title": "Ishikawa, Mito","title_jp": "みとし いしかわ","description": "","creator": "mext","feed": "http://www.rdtn.org/feeds/station/1080000014.json","location": {"lon":140.4258462, "lat":36.39205401, "name": "Ibaraki"},"id":1080000014,"datastreams": [{"at": "2011-07-09 04:30:00","max_value": "-888","min_value": "-888","current_value": "89","id": "2859550","unit": {"type": "basicSI","label": "nano Gray per hour","symbol": "nGy/h"}}]},{"title": "Horiguchi, Hitachinaka City","title_jp": "ひたちなかし ほりぐち","description": "","creator": "mext","feed": "http://www.rdtn.org/feeds/station/1080000015.json","location": {"lon":140.5150062, "lat":36.38650081, "name": "Ibaraki"},"id":1080000015,"datastreams": [{"at": "2011-07-09 04:30:00","max_value": "-888","min_value": "-888","current_value": "136","id": "2859551","unit": {"type": "basicSI","label": "nano Gray per hour","symbol": "nGy/h"}}]},{"title": "Kuji Hitachi City","title_jp": "ひたちし くじ","description": "","creator": "mext","feed": "http://www.rdtn.org/feeds/station/1080000016.json","location": {"lon":140.611105, "lat":36.50287979, "name": "Ibaraki"},"id":1080000016,"datastreams": [{"at": "2011-07-09 04:20:00","max_value": "-888","min_value": "-888","current_value": "180","id": "2859345","unit": {"type": "basicSI","label": "nano Gray per hour","symbol": "nGy/h"}}]},{"title": "Isobe Hitatioota City","title_jp": "ひたちおおたし いそべ","description": "","creator": "mext","feed": "http://www.rdtn.org/feeds/station/1080000017.json","location": {"lon":140.5383325, "lat":36.51621018, "name": "Ibaraki"},"id":1080000017,"datastreams": [{"at": "2011-07-09 04:30:00","max_value": "-888","min_value": "-888","current_value": "87","id": "2859552","unit": {"type": "basicSI","label": "nano Gray per hour","symbol": "nGy/h"}}]},{"title": "Kadobe Naka City","title_jp": "なかし かどべ","description": "","creator": "mext","feed": "http://www.rdtn.org/feeds/station/1080000018.json","location": {"lon":140.4841716, "lat":36.48871191, "name": "Ibaraki"},"id":1080000018,"datastreams": [{"at": "2011-07-09 04:30:00","max_value": "-888","min_value": "-888","current_value": "90","id": "2859553","unit": {"type": "basicSI","label": "nano Gray per hour","symbol": "nGy/h"}}]},{"title": "Sugaya Naka City","title_jp": "なかし すがや","description": "","creator": "mext","feed": "http://www.rdtn.org/feeds/station/1080000019.json","location": {"lon":140.5000054, "lat":36.444551, "name": "Ibaraki"},"id":1080000019,"datastreams": [{"at": "2011-07-09 04:30:00","max_value": "-888","min_value": "-888","current_value": "71","id": "2859554","unit": {"type": "basicSI","label": "nano Gray per hour","symbol": "nGy/h"}}]},{"title": "Oba Mito City","title_jp": "みとし おおば","description": "","creator": "mext","feed": "http://www.rdtn.org/feeds/station/1080000020.json","location": {"lon":140.5194514, "lat":36.32984119, "name": "Ibaraki"},"id":1080000020,"datastreams": [{"at": "2011-07-09 04:30:00","max_value": "-888","min_value": "-888","current_value": "91","id": "2859555","unit": {"type": "basicSI","label": "nano Gray per hour","symbol": "nGy/h"}}]},{"title": "Ebisawa town Ibaraki","title_jp": "いばらきまち えびさわ","description": "","creator": "mext","feed": "http://www.rdtn.org/feeds/station/1080000021.json","location": {"lon":140.4594597, "lat":36.25901575, "name": "Ibaraki"},"id":1080000021,"datastreams": [{"at": "2011-07-09 04:30:00","max_value": "-888","min_value": "-888","current_value": "109","id": "2859556","unit": {"type": "basicSI","label": "nano Gray per hour","symbol": "nGy/h"}}]},{"title": "Sawa Hitachinaka City","title_jp": "ひたちなかし さわ","description": "","creator": "mext","feed": "http://www.rdtn.org/feeds/station/1080000022.json","location": {"lon":140.5300024, "lat":36.43927434, "name": "Ibaraki"},"id":1080000022,"datastreams": [{"at": "2011-07-09 04:30:00","max_value": "-888","min_value": "-888","current_value": "112","id": "2859557","unit": {"type": "basicSI","label": "nano Gray per hour","symbol": "nGy/h"}}]},{"title": "Sawa Yanagi Hitachinaka City","title_jp": "ひたちなかし やなぎさわ","description": "","creator": "mext","feed": "http://www.rdtn.org/feeds/station/1080000023.json","location": {"lon":140.569723, "lat":36.35761731, "name": "Ibaraki"},"id":1080000023,"datastreams": [{"at": "2011-07-09 04:30:00","max_value": "0","min_value": "0","current_value": "106","id": "2859558","unit": {"type": "basicSI","label": "nano Gray per hour","symbol": "nGy/h"}}]},{"title": "Motokomezaki Naka City","title_jp": "なかし もとこめざき","description": "","creator": "mext","feed": "http://www.rdtn.org/feeds/station/1080000024.json","location": {"lon":140.5472209, "lat":36.48232508, "name": "Ibaraki"},"id":1080000024,"datastreams": [{"at": "2011-07-09 04:30:00","max_value": "-888","min_value": "-888","current_value": "82","id": "2859559","unit": {"type": "basicSI","label": "nano Gray per hour","symbol": "nGy/h"}}]},{"title": "City Nukata Naka","title_jp": "なかし ぬかだ","description": "","creator": "mext","feed": "http://www.rdtn.org/feeds/station/1080000025.json","location": {"lon":140.5197234, "lat":36.49121222, "name": "Ibaraki"},"id":1080000025,"datastreams": [{"at": "2011-07-09 04:30:00","max_value": "-888","min_value": "-888","current_value": "76","id": "2859560","unit": {"type": "basicSI","label": "nano Gray per hour","symbol": "nGy/h"}}]},{"title": "City Kounosu Naka","title_jp": "なかし こうのす","description": "","creator": "mext","feed": "http://www.rdtn.org/feeds/station/1080000026.json","location": {"lon":140.4633412, "lat":36.46871361, "name": "Ibaraki"},"id":1080000026,"datastreams": [{"at": "2011-07-09 04:40:00","max_value": "0","min_value": "0","current_value": "75","id": "2859684","unit": {"type": "basicSI","label": "nano Gray per hour","symbol": "nGy/h"}}]},{"title": "Godai Naka City","title_jp": "なかし ごだい","description": "","creator": "mext","feed": "http://www.rdtn.org/feeds/station/1080000027.json","location": {"lon":140.4744526, "lat":36.42483019, "name": "Ibaraki"},"id":1080000027,"datastreams": [{"at": "2011-07-09 04:30:00","max_value": "-888","min_value": "-888","current_value": "85","id": "2859562","unit": {"type": "basicSI","label": "nano Gray per hour","symbol": "nGy/h"}}]},{"title": "Onuma Hitachi City","title_jp": "ひたちし おおぬま","description": "","creator": "mext","feed": "http://www.rdtn.org/feeds/station/1080000028.json","location": {"lon":140.6291573, "lat":36.53371063, "name": "Ibaraki"},"id":1080000028,"datastreams": [{"at": "2011-07-09 04:30:00","max_value": "0","min_value": "0","current_value": "168","id": "2859563","unit": {"type": "basicSI","label": "nano Gray per hour","symbol": "nGy/h"}}]},{"title": "Mayumi Hitatioota City","title_jp": "ひたちおおたし まゆみ","description": "","creator": "mext","feed": "http://www.rdtn.org/feeds/station/1080000029.json","location": {"lon":140.5697192, "lat":36.52398831, "name": "Ibaraki"},"id":1080000029,"datastreams": [{"at": "2011-07-09 04:30:00","max_value": "-888","min_value": "-888","current_value": "70","id": "2859564","unit": {"type": "basicSI","label": "nano Gray per hour","symbol": "nGy/h"}}]},{"title": "City Uridura Naka","title_jp": "なかし うりづら","description": "","creator": "mext","feed": "http://www.rdtn.org/feeds/station/1080000030.json","location": {"lon":140.4436193, "lat":36.49982084, "name": "Ibaraki"},"id":1080000030,"datastreams": [{"at": "2011-07-09 04:40:00","max_value": "-888","min_value": "-888","current_value": "77","id": "2859685","unit": {"type": "basicSI","label": "nano Gray per hour","symbol": "nGy/h"}}]},{"title": "Nemoto Hitachioomiya City","title_jp": "ひたちおおみやし ねもと","description": "","creator": "mext","feed": "http://www.rdtn.org/feeds/station/1080000031.json","location": {"lon":140.4352857, "lat":36.52703961, "name": "Ibaraki"},"id":1080000031,"datastreams": [{"at": "2011-07-09 04:20:00","max_value": "0","min_value": "0","current_value": "67","id": "2859360","unit": {"type": "basicSI","label": "nano Gray per hour","symbol": "nGy/h"}}]},{"title": "Kume Hitatioota City","title_jp": "ひたちおおたし くめ","description": "","creator": "mext","feed": "http://www.rdtn.org/feeds/station/1080000032.json","location": {"lon":140.477226, "lat":36.53731694, "name": "Ibaraki"},"id":1080000032,"datastreams": [{"at": "2011-07-09 04:30:00","max_value": "-888","min_value": "-888","current_value": "61","id": "2859566","unit": {"type": "basicSI","label": "nano Gray per hour","symbol": "nGy/h"}}]},{"title": "Isohama Oarai Town","title_jp": "おおあらいまち いそはま","description": "","creator": "mext","feed": "http://www.rdtn.org/feeds/station/1080000033.json","location": {"lon":140.5783349, "lat":36.31762234, "name": "Ibaraki"},"id":1080000033,"datastreams": [{"at": "2011-07-09 04:30:00","max_value": "-888","min_value": "-888","current_value": "118","id": "2859567","unit": {"type": "basicSI","label": "nano Gray per hour","symbol": "nGy/h"}}]},{"title": "Tasaki Hokota City","title_jp": "ほこたし たさき","description": "","creator": "mext","feed": "http://www.rdtn.org/feeds/station/1080000034.json","location": {"lon":140.5208431, "lat":36.25512976, "name": "Ibaraki"},"id":1080000034,"datastreams": [{"at": "2011-07-09 04:20:00","max_value": "-888","min_value": "-888","current_value": "106","id": "2859363","unit": {"type": "basicSI","label": "nano Gray per hour","symbol": "nGy/h"}}]},{"title": "Momiyama Hokota City","title_jp": "ほこたし もみやま","description": "","creator": "mext","feed": "http://www.rdtn.org/feeds/station/1080000035.json","location": {"lon":140.5508437, "lat":36.20041399, "name": "Ibaraki"},"id":1080000035,"datastreams": [{"at": "2011-07-09 04:30:00","max_value": "0","min_value": "0","current_value": "188","id": "2859568","unit": {"type": "basicSI","label": "nano Gray per hour","symbol": "nGy/h"}}]},{"title": "Yatabe Ibaraki town","title_jp": "いばらきまち やたべ","description": "","creator": "mext","feed": "http://www.rdtn.org/feeds/station/1080000036.json","location": {"lon":140.4464037, "lat":36.2915116, "name": "Ibaraki"},"id":1080000036,"datastreams": [{"at": "2011-07-09 04:30:00","max_value": "-888","min_value": "-888","current_value": "89","id": "2859569","unit": {"type": "basicSI","label": "nano Gray per hour","symbol": "nGy/h"}}]},{"title": "Sawa Yoshi Mito City","title_jp": "みとし よしざわ","description": "","creator": "mext","feed": "http://www.rdtn.org/feeds/station/1080000037.json","location": {"lon":140.4622337, "lat":36.33317311, "name": "Ibaraki"},"id":1080000037,"datastreams": [{"at": "2011-07-09 04:30:00","max_value": "0","min_value": "0","current_value": "68","id": "2859570","unit": {"type": "basicSI","label": "nano Gray per hour","symbol": "nGy/h"}}]},{"title": "Kamitoda Hokota City","title_jp": "ほこたし かみとだ","description": "","creator": "mext","feed": "http://www.rdtn.org/feeds/station/1080000038.json","location": {"lon":140.4722383, "lat":36.20846621, "name": "Ibaraki"},"id":1080000038,"datastreams": [{"at": "2011-07-09 04:30:00","max_value": "0","min_value": "0","current_value": "108","id": "2859571","unit": {"type": "basicSI","label": "nano Gray per hour","symbol": "nGy/h"}}]},{"title": "Tokushuku Hokota City","title_jp": "ほこたし とくしゅく","description": "","creator": "mext","feed": "http://www.rdtn.org/feeds/station/1080000039.json","location": {"lon":140.5061249, "lat":36.18680296, "name": "Ibaraki"},"id":1080000039,"datastreams": [{"at": "2011-07-09 04:30:00","max_value": "-888","min_value": "-888","current_value": "105","id": "2859572","unit": {"type": "basicSI","label": "nano Gray per hour","symbol": "nGy/h"}}]},{"title": "Tidori Kawasaki","title_jp": "かわさきく ちどり","description": "","creator": "mext","feed": "http://www.rdtn.org/feeds/station/1140000001.json","location": {"lon":139.7527082, "lat":35.52287369, "name": "Kanagawa"},"id":1140000001,"datastreams": [{"at": "2011-07-09 04:30:00","max_value": "0","min_value": "0","current_value": "50","id": "2859573","unit": {"type": "basicSI","label": "nano Gray per hour","symbol": "nGy/h"}}]},{"title": "Ukishima Kawasaki","title_jp": "かわさきく うきしま","description": "","creator": "mext","feed": "http://www.rdtn.org/feeds/station/1140000002.json","location": {"lon":139.7667736, "lat":35.52825702, "name": "Kanagawa"},"id":1140000002,"datastreams": [{"at": "2011-07-09 04:30:00","max_value": "-888","min_value": "-888","current_value": "66","id": "2859574","unit": {"type": "basicSI","label": "nano Gray per hour","symbol": "nGy/h"}}]},{"title": "Town Hall Kawasaki","title_jp": "かわさきく とのまち","description": "","creator": "mext","feed": "http://www.rdtn.org/feeds/station/1140000003.json","location": {"lon":139.7542744, "lat":35.53825548, "name": "Kanagawa"},"id":1140000003,"datastreams": [{"at": "2011-07-09 04:30:00","max_value": "-888","min_value": "-888","current_value": "41","id": "2859575","unit": {"type": "basicSI","label": "nano Gray per hour","symbol": "nGy/h"}}]},{"title": "Shiohama Kawasaki","title_jp": "かわさきく しおはま","description": "","creator": "mext","feed": "http://www.rdtn.org/feeds/station/1140000004.json","location": {"lon":139.7414978, "lat":35.52520063, "name": "Kanagawa"},"id":1140000004,"datastreams": [{"at": "2011-07-09 04:30:00","max_value": "-888","min_value": "-888","current_value": "58","id": "2859576","unit": {"type": "basicSI","label": "nano Gray per hour","symbol": "nGy/h"}}]},{"title": "Ooshima Kawasaki","title_jp": "かわさきく おおしま","description": "","creator": "mext","feed": "http://www.rdtn.org/feeds/station/1140000005.json","location": {"lon":139.7128889, "lat":35.52603349, "name": "Kanagawa"},"id":1140000005,"datastreams": [{"at": "2011-07-09 04:40:00","max_value": "-888","min_value": "-888","current_value": "57","id": "2859686","unit": {"type": "basicSI","label": "nano Gray per hour","symbol": "nGy/h"}}]},{"title": "Kurihama Yokosuka","title_jp": "よこすかし くりはま","description": "","creator": "mext","feed": "http://www.rdtn.org/feeds/station/1140000006.json","location": {"lon":139.6966167, "lat":35.23574722, "name": "Kanagawa"},"id":1140000006,"datastreams": [{"at": "2011-07-09 04:30:00","max_value": "0","min_value": "0","current_value": "47","id": "2859578","unit": {"type": "basicSI","label": "nano Gray per hour","symbol": "nGy/h"}}]},{"title": "Hunakura Yokosuka","title_jp": "よこすかし ふなぐら","description": "","creator": "mext","feed": "http://www.rdtn.org/feeds/station/1140000007.json","location": {"lon":139.694559, "lat":35.24134438, "name": "Kanagawa"},"id":1140000007,"datastreams": [{"at": "2011-07-09 04:30:00","max_value": "-888","min_value": "-888","current_value": "51","id": "2859579","unit": {"type": "basicSI","label": "nano Gray per hour","symbol": "nGy/h"}}]},{"title": "Sahara, Yokosuka-shi","title_jp": "よこすかし さはら","description": "","creator": "mext","feed": "http://www.rdtn.org/feeds/station/1140000008.json","location": {"lon":139.6892817, "lat":35.23717827, "name": "Kanagawa"},"id":1140000008,"datastreams": [{"at": "2011-07-09 04:30:00","max_value": "-888","min_value": "-888","current_value": "49","id": "2859580","unit": {"type": "basicSI","label": "nano Gray per hour","symbol": "nGy/h"}}]},{"title": "Uraga Yokosuka","title_jp": "よこすかし うらが","description": "","creator": "mext","feed": "http://www.rdtn.org/feeds/station/1140000009.json","location": {"lon":139.7134465, "lat":35.24995436, "name": "Kanagawa"},"id":1140000009,"datastreams": [{"at": "2011-07-09 04:30:00","max_value": "-888","min_value": "-888","current_value": "57","id": "2859581","unit": {"type": "basicSI","label": "nano Gray per hour","symbol": "nGy/h"}}]},{"title": "Highland Yokosuka","title_jp": "よこすかし はいらんど","description": "","creator": "mext","feed": "http://www.rdtn.org/feeds/station/1140000010.json","location": {"lon":139.6848377, "lat":35.22412426, "name": "Kanagawa"},"id":1140000010,"datastreams": [{"at": "2011-07-09 04:30:00","max_value": "-888","min_value": "-888","current_value": "52","id": "2859582","unit": {"type": "basicSI","label": "nano Gray per hour","symbol": "nGy/h"}}]},{"title": "Hinode Yokosuka","title_jp": "よこすかし ひのでちょう","description": "","creator": "mext","feed": "http://www.rdtn.org/feeds/station/1140000011.json","location": {"lon":139.6765052, "lat":35.2793959, "name": "Kanagawa"},"id":1140000011,"datastreams": [{"at": "2011-07-09 04:40:00","max_value": "-888","min_value": "-888","current_value": "39","id": "2859687","unit": {"type": "basicSI","label": "nano Gray per hour","symbol": "nGy/h"}}]},{"title": "Nishihemi Yokosuka","title_jp": "よこすかし にしへみ","description": "","creator": "mext","feed": "http://www.rdtn.org/feeds/station/1140000012.json","location": {"lon":139.6481745, "lat":35.27995183, "name": "Kanagawa"},"id":1140000012,"datastreams": [{"at": "2011-07-09 04:30:00","max_value": "-888","min_value": "-888","current_value": "44","id": "2859584","unit": {"type": "basicSI","label": "nano Gray per hour","symbol": "nGy/h"}}]},{"title": "Nagasawa Yokosuka","title_jp": "よこすかし ながさわ","description": "","creator": "mext","feed": "http://www.rdtn.org/feeds/station/1140000013.json","location": {"lon":139.6728947, "lat":35.20412668, "name": "Kanagawa"},"id":1140000013,"datastreams": [{"at": "2011-07-09 04:30:00","max_value": "-888","min_value": "-888","current_value": "41","id": "2859585","unit": {"type": "basicSI","label": "nano Gray per hour","symbol": "nGy/h"}}]},{"title": "Kashiwazaki Kashiwazaki city","title_jp": "かしわざきし かしわざきしがい","description": "","creator": "mext","feed": "http://www.rdtn.org/feeds/station/1150000001.json","location": {"lon":138.558766269444, "lat":37.3680136972222, "name": "Niigata"},"id":1150000001,"datastreams": [{"at": "2011-07-09 04:30:00","max_value": "0","min_value": "0","current_value": "41","id": "2859586","unit": {"type": "basicSI","label": "nano Gray per hour","symbol": "nGy/h"}}]},{"title": "Arahama Kashiwazaki City","title_jp": "かしわざきし あらはま","description": "","creator": "mext","feed": "http://www.rdtn.org/feeds/station/1150000002.json","location": {"lon":138.580151622222, "lat":37.4063426027778, "name": "Niigata"},"id":1150000002,"datastreams": [{"at": "2011-07-09 04:20:00","max_value": "0","min_value": "0","current_value": "37","id": "2859383","unit": {"type": "basicSI","label": "nano Gray per hour","symbol": "nGy/h"}}]},{"title": "city ?? Kariwa village","title_jp": "かりわむら しもたかまち","description": "","creator": "mext","feed": "http://www.rdtn.org/feeds/station/1150000003.json","location": {"lon":138.607371080556, "lat":37.4091206722222, "name": "Niigata"},"id":1150000003,"datastreams": [{"at": "2011-07-09 04:30:00","max_value": "0","min_value": "0","current_value": "39","id": "2859587","unit": {"type": "basicSI","label": "nano Gray per hour","symbol": "nGy/h"}}]},{"title": "Kariwa Kariwa village","title_jp": "かりわむら かりわ","description": "","creator": "mext","feed": "http://www.rdtn.org/feeds/station/1150000004.json","location": {"lon":138.620980588889, "lat":37.4252298944444, "name": "Niigata"},"id":1150000004,"datastreams": [{"at": "2011-07-09 04:40:00","max_value": "0","min_value": "0","current_value": "36","id": "2859688","unit": {"type": "basicSI","label": "nano Gray per hour","symbol": "nGy/h"}}]},{"title": "Yamamura Tsuyoshi Kariwa","title_jp": "かりわむら かつやま","description": "","creator": "mext","feed": "http://www.rdtn.org/feeds/station/1150000005.json","location": {"lon":138.6295905, "lat":37.44467165, "name": "Niigata"},"id":1150000005,"datastreams": [{"at": "2011-07-09 04:30:00","max_value": "0","min_value": "0","current_value": "38","id": "2859589","unit": {"type": "basicSI","label": "nano Gray per hour","symbol": "nGy/h"}}]},{"title": "Miyagawa Kashiwazaki City","title_jp": "かしわざきし みやがわ","description": "","creator": "mext","feed": "http://www.rdtn.org/feeds/station/1150000006.json","location": {"lon":138.61375895, "lat":37.4564474277778, "name": "Niigata"},"id":1150000006,"datastreams": [{"at": "2011-07-09 04:20:00","max_value": "0","min_value": "0","current_value": "38","id": "2859387","unit": {"type": "basicSI","label": "nano Gray per hour","symbol": "nGy/h"}}]},{"title": "Kashiwazaki Nishiyama City","title_jp": "かしわざきし にしやま","description": "","creator": "mext","feed": "http://www.rdtn.org/feeds/station/1150000007.json","location": {"lon":138.665975408333, "lat":37.457726125, "name": "Niigata"},"id":1150000007,"datastreams": [{"at": "2011-07-09 04:30:00","max_value": "0","min_value": "0","current_value": "39","id": "2859590","unit": {"type": "basicSI","label": "nano Gray per hour","symbol": "nGy/h"}}]},{"title": "Kariwa village, town Akata If","title_jp": "かりわむら あかだまちがた","description": "","creator": "mext","feed": "http://www.rdtn.org/feeds/station/1150000008.json","location": {"lon":138.643200311111, "lat":37.4146758833333, "name": "Niigata"},"id":1150000008,"datastreams": [{"at": "2011-07-09 04:30:00","max_value": "0","min_value": "0","current_value": "38","id": "2859591","unit": {"type": "basicSI","label": "nano Gray per hour","symbol": "nGy/h"}}]},{"title": "Doai Kashiwazaki City","title_jp": "かしわざきし どあい","description": "","creator": "mext","feed": "http://www.rdtn.org/feeds/station/1150000009.json","location": {"lon":138.599038752778, "lat":37.3932891333333, "name": "Niigata"},"id":1150000009,"datastreams": [{"at": "2011-07-09 04:30:00","max_value": "0","min_value": "0","current_value": "38","id": "2859592","unit": {"type": "basicSI","label": "nano Gray per hour","symbol": "nGy/h"}}]},{"title": "Tokoro Kita power","title_jp": "はつでんしょきた","description": "","creator": "mext","feed": "http://www.rdtn.org/feeds/station/1150000010.json","location": {"lon":138.611666666667, "lat":37.4308333333333, "name": "Niigata"},"id":1150000010,"datastreams": [{"at": "2011-07-09 04:20:00","max_value": "0","min_value": "0","current_value": "36","id": "2859391","unit": {"type": "basicSI","label": "nano Gray per hour","symbol": "nGy/h"}}]},{"title": "Tokoro Minami power","title_jp": "はつでんしょみなみ","description": "","creator": "mext","feed": "http://www.rdtn.org/feeds/station/1150000011.json","location": {"lon":138.601111111111, "lat":37.4175, "name": "Niigata"},"id":1150000011,"datastreams": [{"at": "2011-07-09 04:30:00","max_value": "0","min_value": "0","current_value": "36","id": "2859593","unit": {"type": "basicSI","label": "nano Gray per hour","symbol": "nGy/h"}}]},{"title": "Shika Shika Town","title_jp": "しかまち しか","description": "","creator": "mext","feed": "http://www.rdtn.org/feeds/station/1170000001.json","location": {"lon":136.762854975, "lat":37.026177525, "name": "Ishikawa"},"id":1170000001,"datastreams": [{"at": "2011-07-09 04:30:00","max_value": "0","min_value": "0","current_value": "47","id": "2859594","unit": {"type": "basicSI","label": "nano Gray per hour","symbol": "nGy/h"}}]},{"title": "Noumi Shika Town","title_jp": "しかまち のうみ","description": "","creator": "mext","feed": "http://www.rdtn.org/feeds/station/1170000002.json","location": {"lon":136.779636902778, "lat":37.0704309111111, "name": "Ishikawa"},"id":1170000002,"datastreams": [{"at": "2011-07-09 04:40:00","max_value": "0","min_value": "0","current_value": "52","id": "2859689","unit": {"type": "basicSI","label": "nano Gray per hour","symbol": "nGy/h"}}]},{"title": "Akasumi Shika Town","title_jp": "しかまち あかすみ","description": "","creator": "mext","feed": "http://www.rdtn.org/feeds/station/1170000003.json","location": {"lon":136.731561891667, "lat":37.0499595472222, "name": "Ishikawa"},"id":1170000003,"datastreams": [{"at": "2011-07-09 04:40:00","max_value": "0","min_value": "0","current_value": "47","id": "2859690","unit": {"type": "basicSI","label": "nano Gray per hour","symbol": "nGy/h"}}]},{"title": "Fukura Shika Town","title_jp": "とぎまち ふくうら","description": "","creator": "mext","feed": "http://www.rdtn.org/feeds/station/1170000004.json","location": {"lon":136.727588552778, "lat":37.080941875, "name": "Ishikawa"},"id":1170000004,"datastreams": [{"at": "2011-07-09 04:40:00","max_value": "0","min_value": "0","current_value": "40","id": "2859691","unit": {"type": "basicSI","label": "nano Gray per hour","symbol": "nGy/h"}}]},{"title": "Kumano Shika Town","title_jp": "とぎまち くまの","description": "","creator": "mext","feed": "http://www.rdtn.org/feeds/station/1170000005.json","location": {"lon":136.766845261111, "lat":37.0892838666667, "name": "Ishikawa"},"id":1170000005,"datastreams": [{"at": "2011-07-09 04:30:00","max_value": "0","min_value": "0","current_value": "47","id": "2859598","unit": {"type": "basicSI","label": "nano Gray per hour","symbol": "nGy/h"}}]},{"title": "Tatsunokuti Authority (comparative)","title_jp": "たつのくち（ひかくたいしょうきょく）","description": "","creator": "mext","feed": "http://www.rdtn.org/feeds/station/1170000006.json","location": {"lon":136.533721638889, "lat":36.4297369805556, "name": "Ishikawa"},"id":1170000006,"datastreams": [{"at": "2011-07-09 04:30:00","max_value": "0","min_value": "0","current_value": "43","id": "2859599","unit": {"type": "basicSI","label": "nano Gray per hour","symbol": "nGy/h"}}]},{"title": "Goritoge Shika Town","title_jp": "しかまち ごりとうげ","description": "","creator": "mext","feed": "http://www.rdtn.org/feeds/station/1170000007.json","location": {"lon":136.765464294444, "lat":37.0519883916667, "name": "Ishikawa"},"id":1170000007,"datastreams": [{"at": "2011-07-09 04:10:00","max_value": "0","min_value": "0","current_value": "54","id": "2859182","unit": {"type": "basicSI","label": "nano Gray per hour","symbol": "nGy/h"}}]},{"title": "Kazanashi Shika Town","title_jp": "しかまち かざなし","description": "","creator": "mext","feed": "http://www.rdtn.org/feeds/station/1170000008.json","location": {"lon":136.686658525, "lat":37.1407166944444, "name": "Ishikawa"},"id":1170000008,"datastreams": [{"at": "2011-07-09 04:30:00","max_value": "0","min_value": "0","current_value": "46","id": "2859600","unit": {"type": "basicSI","label": "nano Gray per hour","symbol": "nGy/h"}}]},{"title": "Tsuchikawa Nanao City","title_jp": "ななおし つちかわ","description": "","creator": "mext","feed": "http://www.rdtn.org/feeds/station/1170000009.json","location": {"lon":136.811511916667, "lat":37.1115244444444, "name": "Ishikawa"},"id":1170000009,"datastreams": [{"at": "2011-07-09 04:30:00","max_value": "0","min_value": "0","current_value": "39","id": "2859601","unit": {"type": "basicSI","label": "nano Gray per hour","symbol": "nGy/h"}}]},{"title": "Oodu Nanao City","title_jp": "ななおし おおつ","description": "","creator": "mext","feed": "http://www.rdtn.org/feeds/station/1170000010.json","location": {"lon":136.846724475, "lat":37.0694247444444, "name": "Ishikawa"},"id":1170000010,"datastreams": [{"at": "2011-07-09 04:30:00","max_value": "0","min_value": "0","current_value": "42","id": "2859602","unit": {"type": "basicSI","label": "nano Gray per hour","symbol": "nGy/h"}}]},{"title": "Tsuruga Tsuruga City","title_jp": "つるがし つるが","description": "","creator": "mext","feed": "http://www.rdtn.org/feeds/station/1180000001.json","location": {"lon":136.057407188889, "lat":35.6426027083333, "name": "Fukui"},"id":1180000001,"datastreams": [{"at": "2011-07-09 04:40:00","max_value": "0","min_value": "0","current_value": "58","id": "2859692","unit": {"type": "basicSI","label": "nano Gray per hour","symbol": "nGy/h"}}]},{"title": "Tsuruga Urasoko","title_jp": "つるがし うらそこ","description": "","creator": "mext","feed": "http://www.rdtn.org/feeds/station/1180000002.json","location": {"lon":136.027406877778, "lat":35.7395340944444, "name": "Fukui"},"id":1180000002,"datastreams": [{"at": "2011-07-09 04:20:00","max_value": "0","min_value": "0","current_value": "75","id": "2859404","unit": {"type": "basicSI","label": "nano Gray per hour","symbol": "nGy/h"}}]},{"title": "Tateishi Tsuruga City","title_jp": "つるがし たていし","description": "","creator": "mext","feed": "http://www.rdtn.org/feeds/station/1180000003.json","location": {"lon":136.023239602778, "lat":35.7581429611111, "name": "Fukui"},"id":1180000003,"datastreams": [{"at": "2011-07-09 04:30:00","max_value": "0","min_value": "0","current_value": "72","id": "2859604","unit": {"type": "basicSI","label": "nano Gray per hour","symbol": "nGy/h"}}]},{"title": "Niu Mihama Town","title_jp": "みはまちょう にゅう","description": "","creator": "mext","feed": "http://www.rdtn.org/feeds/station/1180000004.json","location": {"lon":135.967970361111, "lat":35.71161995, "name": "Fukui"},"id":1180000004,"datastreams": [{"at": "2011-07-09 04:20:00","max_value": "0","min_value": "0","current_value": "62","id": "2859406","unit": {"type": "basicSI","label": "nano Gray per hour","symbol": "nGy/h"}}]},{"title": "?? Mihama Town","title_jp": "みはまちょう たけなみ","description": "","creator": "mext","feed": "http://www.rdtn.org/feeds/station/1180000005.json","location": {"lon":135.978525586111, "lat":35.6945391583333, "name": "Fukui"},"id":1180000005,"datastreams": [{"at": "2011-07-09 04:30:00","max_value": "0","min_value": "0","current_value": "74","id": "2859605","unit": {"type": "basicSI","label": "nano Gray per hour","symbol": "nGy/h"}}]},{"title": "Shiraki, Tsuruga City","title_jp": "つるがし しらき","description": "","creator": "mext","feed": "http://www.rdtn.org/feeds/station/1180000006.json","location": {"lon":135.978246227778, "lat":35.7312006611111, "name": "Fukui"},"id":1180000006,"datastreams": [{"at": "2011-07-09 04:30:00","max_value": "0","min_value": "0","current_value": "76","id": "2859606","unit": {"type": "basicSI","label": "nano Gray per hour","symbol": "nGy/h"}}]},{"title": "??? Tsuruga City","title_jp": "つるがし しらきとうげ","description": "","creator": "mext","feed": "http://www.rdtn.org/feeds/station/1180000007.json","location": {"lon":135.977413344444, "lat":35.7245348305556, "name": "Fukui"},"id":1180000007,"datastreams": [{"at": "2011-07-09 04:30:00","max_value": "0","min_value": "0","current_value": "70","id": "2859607","unit": {"type": "basicSI","label": "nano Gray per hour","symbol": "nGy/h"}}]},{"title": "Obama Obama","title_jp": "おばまし おばま","description": "","creator": "mext","feed": "http://www.rdtn.org/feeds/station/1180000008.json","location": {"lon":135.745769238889, "lat":35.4959481944444, "name": "Fukui"},"id":1180000008,"datastreams": [{"at": "2011-07-09 04:30:00","max_value": "0","min_value": "0","current_value": "49","id": "2859608","unit": {"type": "basicSI","label": "nano Gray per hour","symbol": "nGy/h"}}]},{"title": "?? Sun covered the city","title_jp": "おおいちょう ひつはま","description": "","creator": "mext","feed": "http://www.rdtn.org/feeds/station/1180000009.json","location": {"lon":135.64605385, "lat":35.5273345944444, "name": "Fukui"},"id":1180000009,"datastreams": [{"at": "2011-07-09 04:30:00","max_value": "0","min_value": "0","current_value": "44","id": "2859609","unit": {"type": "basicSI","label": "nano Gray per hour","symbol": "nGy/h"}}]},{"title": "Miyamati residue canopy","title_jp": "おおいちょう みやどめ","description": "","creator": "mext","feed": "http://www.rdtn.org/feeds/station/1180000010.json","location": {"lon":135.656330838889, "lat":35.5312232083333, "name": "Fukui"},"id":1180000010,"datastreams": [{"at": "2011-07-09 04:20:00","max_value": "0","min_value": "0","current_value": "35","id": "2859412","unit": {"type": "basicSI","label": "nano Gray per hour","symbol": "nGy/h"}}]},{"title": "??? Takahamacho","title_jp": "たかはまちょう おぐるい","description": "","creator": "mext","feed": "http://www.rdtn.org/feeds/station/1180000011.json","location": {"lon":135.512172497222, "lat":35.5153892416667, "name": "Fukui"},"id":1180000011,"datastreams": [{"at": "2011-07-09 04:30:00","max_value": "0","min_value": "0","current_value": "37","id": "2859610","unit": {"type": "basicSI","label": "nano Gray per hour","symbol": "nGy/h"}}]},{"title": "?? Takahamacho","title_jp": "たかはまちょう おとみ","description": "","creator": "mext","feed": "http://www.rdtn.org/feeds/station/1180000012.json","location": {"lon":135.506061333333, "lat":35.5359418083333, "name": "Fukui"},"id":1180000012,"datastreams": [{"at": "2011-07-09 04:30:00","max_value": "0","min_value": "0","current_value": "43","id": "2859611","unit": {"type": "basicSI","label": "nano Gray per hour","symbol": "nGy/h"}}]},{"title": "??? Takahamacho","title_jp": "たかはまちょう こうのうら","description": "","creator": "mext","feed": "http://www.rdtn.org/feeds/station/1180000013.json","location": {"lon":135.493008194444, "lat":35.5220545972222, "name": "Fukui"},"id":1180000013,"datastreams": [{"at": "2011-07-09 04:30:00","max_value": "0","min_value": "0","current_value": "28","id": "2859612","unit": {"type": "basicSI","label": "nano Gray per hour","symbol": "nGy/h"}}]},{"title": "Kono Etizen town south","title_jp": "みなみえちぜんちょう こうの","description": "","creator": "mext","feed": "http://www.rdtn.org/feeds/station/1180000021.json","location": {"lon":136.068509041667, "lat":35.8248000611111, "name": "Fukui"},"id":1180000021,"datastreams": [{"at": "2011-07-09 04:20:00","max_value": "0","min_value": "0","current_value": "47","id": "2859416","unit": {"type": "basicSI","label": "nano Gray per hour","symbol": "nGy/h"}}]},{"title": "Sakajiri Mihama Town","title_jp": "みはまちょう さかじり","description": "","creator": "mext","feed": "http://www.rdtn.org/feeds/station/1180000022.json","location": {"lon":135.961029963889, "lat":35.6198266, "name": "Fukui"},"id":1180000022,"datastreams": [{"at": "2011-07-09 04:30:00","max_value": "0","min_value": "0","current_value": "55","id": "2859613","unit": {"type": "basicSI","label": "nano Gray per hour","symbol": "nGy/h"}}]},{"title": "??? Obama","title_jp": "おばまし あのじり","description": "","creator": "mext","feed": "http://www.rdtn.org/feeds/station/1180000023.json","location": {"lon":135.764656383333, "lat":35.5320566694444, "name": "Fukui"},"id":1180000023,"datastreams": [{"at": "2011-07-09 04:30:00","max_value": "0","min_value": "0","current_value": "31","id": "2859614","unit": {"type": "basicSI","label": "nano Gray per hour","symbol": "nGy/h"}}]},{"title": "Nagai town covered","title_jp": "おおいちょう ながい","description": "","creator": "mext","feed": "http://www.rdtn.org/feeds/station/1180000024.json","location": {"lon":135.641610466667, "lat":35.4773382333333, "name": "Fukui"},"id":1180000024,"datastreams": [{"at": "2011-07-09 04:30:00","max_value": "0","min_value": "0","current_value": "36","id": "2859615","unit": {"type": "basicSI","label": "nano Gray per hour","symbol": "nGy/h"}}]},{"title": "Takahamacho Yamanaka","title_jp": "たかはまちょう やまなか","description": "","creator": "mext","feed": "http://www.rdtn.org/feeds/station/1180000025.json","location": {"lon":135.467733525, "lat":35.5198314444444, "name": "Fukui"},"id":1180000025,"datastreams": [{"at": "2011-07-09 04:20:00","max_value": "0","min_value": "0","current_value": "28","id": "2859420","unit": {"type": "basicSI","label": "nano Gray per hour","symbol": "nGy/h"}}]},{"title": "Shirasuna Omaezaki City","title_jp": "おまえざきし しらすな","description": "","creator": "mext","feed": "http://www.rdtn.org/feeds/station/1220000001.json","location": {"lon":138.122502544444, "lat":34.6299979333333, "name": "Shizuoka"},"id":1220000001,"datastreams": [{"at": "2011-07-09 04:20:00","max_value": "0","min_value": "0","current_value": "42","id": "2859421","unit": {"type": "basicSI","label": "nano Gray per hour","symbol": "nGy/h"}}]},{"title": "Naka Omaezaki City","title_jp": "おまえざきし なかまち","description": "","creator": "mext","feed": "http://www.rdtn.org/feeds/station/1220000002.json","location": {"lon":138.126668583333, "lat":34.6380526305556, "name": "Shizuoka"},"id":1220000002,"datastreams": [{"at": "2011-07-09 04:30:00","max_value": "0","min_value": "0","current_value": "53","id": "2859616","unit": {"type": "basicSI","label": "nano Gray per hour","symbol": "nGy/h"}}]},{"title": "City Community Center Pond cherry Omaezaki","title_jp": "おまえざきし さくらがいけこうみんかん","description": "","creator": "mext","feed": "http://www.rdtn.org/feeds/station/1220000003.json","location": {"lon":138.141944902778, "lat":34.6366643916667, "name": "Shizuoka"},"id":1220000003,"datastreams": [{"at": "2011-07-09 04:40:00","max_value": "0","min_value": "0","current_value": "45","id": "2859693","unit": {"type": "basicSI","label": "nano Gray per hour","symbol": "nGy/h"}}]},{"title": "Kaminohara Omaezaki City","title_jp": "おまえざきし うえのはら","description": "","creator": "mext","feed": "http://www.rdtn.org/feeds/station/1220000004.json","location": {"lon":138.149166769444, "lat":34.6269436777778, "name": "Shizuoka"},"id":1220000004,"datastreams": [{"at": "2011-07-09 04:30:00","max_value": "0","min_value": "0","current_value": "44","id": "2859618","unit": {"type": "basicSI","label": "nano Gray per hour","symbol": "nGy/h"}}]},{"title": "three, Sakura-ku Omaezaki City","title_jp": "おまえざきし さくらさんく","description": "","creator": "mext","feed": "http://www.rdtn.org/feeds/station/1220000005.json","location": {"lon":138.156832269444, "lat":34.6367288166667, "name": "Shizuoka"},"id":1220000005,"datastreams": [{"at": "2011-07-09 04:20:00","max_value": "0","min_value": "0","current_value": "38","id": "2859425","unit": {"type": "basicSI","label": "nano Gray per hour","symbol": "nGy/h"}}]},{"title": "Hiraba Omaezaki City","title_jp": "おまえざきし ひらば","description": "","creator": "mext","feed": "http://www.rdtn.org/feeds/station/1220000006.json","location": {"lon":138.157777091667, "lat":34.6213887833333, "name": "Shizuoka"},"id":1220000006,"datastreams": [{"at": "2011-07-09 04:30:00","max_value": "0","min_value": "0","current_value": "40","id": "2859619","unit": {"type": "basicSI","label": "nano Gray per hour","symbol": "nGy/h"}}]},{"title": "City Elementary singled Omaezaki","title_jp": "おまえざきし しろわしょうがっこう","description": "","creator": "mext","feed": "http://www.rdtn.org/feeds/station/1220000007.json","location": {"lon":138.189996061111, "lat":34.6116688416667, "name": "Shizuoka"},"id":1220000007,"datastreams": [{"at": "2011-07-09 04:20:00","max_value": "0","min_value": "0","current_value": "45","id": "2859427","unit": {"type": "basicSI","label": "nano Gray per hour","symbol": "nGy/h"}}]},{"title": "Elementary ??? Makinohara City","title_jp": "まきのはらし じとうがたしょうがっこう","description": "","creator": "mext","feed": "http://www.rdtn.org/feeds/station/1220000008.json","location": {"lon":138.193883391667, "lat":34.6374993972222, "name": "Shizuoka"},"id":1220000008,"datastreams": [{"at": "2011-07-09 04:30:00","max_value": "0","min_value": "0","current_value": "42","id": "2859620","unit": {"type": "basicSI","label": "nano Gray per hour","symbol": "nGy/h"}}]},{"title": "Monitoring Centre Omaezaki City","title_jp": "おまえざきし かんしせんたー","description": "","creator": "mext","feed": "http://www.rdtn.org/feeds/station/1220000013.json","location": {"lon":138.131945836111, "lat":34.6386082472222, "name": "Shizuoka"},"id":1220000013,"datastreams": [{"at": "2011-07-09 04:30:00","max_value": "0","min_value": "0","current_value": "38","id": "2859622","unit": {"type": "basicSI","label": "nano Gray per hour","symbol": "nGy/h"}}]},{"title": "reed pipe Omaezaki City","title_jp": "おまえざきし くさぶえ","description": "","creator": "mext","feed": "http://www.rdtn.org/feeds/station/1220000014.json","location": {"lon":138.146111208333, "lat":34.634998125, "name": "Shizuoka"},"id":1220000014,"datastreams": [{"at": "2011-07-09 04:30:00","max_value": "0","min_value": "0","current_value": "37","id": "2859623","unit": {"type": "basicSI","label": "nano Gray per hour","symbol": "nGy/h"}}]},{"title": "Shin Kamiko Omaezaki City","title_jp": "おまえざきし しんかんご","description": "","creator": "mext","feed": "http://www.rdtn.org/feeds/station/1220000015.json","location": {"lon":138.161665736111, "lat":34.6155562972222, "name": "Shizuoka"},"id":1220000015,"datastreams": [{"at": "2011-07-09 04:30:00","max_value": "0","min_value": "0","current_value": "37","id": "2859624","unit": {"type": "basicSI","label": "nano Gray per hour","symbol": "nGy/h"}}]},{"title": "Elementary Okaiti Kitahama Omaezaki","title_jp": "おまえざきし はまおかきたしょうがっこう","description": "","creator": "mext","feed": "http://www.rdtn.org/feeds/station/1220000016.json","location": {"lon":138.136111163889, "lat":34.6686045972222, "name": "Shizuoka"},"id":1220000016,"datastreams": [{"at": "2011-07-09 04:30:00","max_value": "0","min_value": "0","current_value": "40","id": "2859625","unit": {"type": "basicSI","label": "nano Gray per hour","symbol": "nGy/h"}}]},{"title": "Kakegawa Oohigashi branch","title_jp": "かけがわし だいとうししょ","description": "","creator": "mext","feed": "http://www.rdtn.org/feeds/station/1220000017.json","location": {"lon":138.055007672222, "lat":34.6666579305556, "name": "Shizuoka"},"id":1220000017,"datastreams": [{"at": "2011-07-09 04:20:00","max_value": "0","min_value": "0","current_value": "39","id": "2859434","unit": {"type": "basicSI","label": "nano Gray per hour","symbol": "nGy/h"}}]},{"title": "branch Ogasa Kikugawa City","title_jp": "きくがわし おがさししょ","description": "","creator": "mext","feed": "http://www.rdtn.org/feeds/station/1220000018.json","location": {"lon":138.090003433333, "lat":34.6944328777778, "name": "Shizuoka"},"id":1220000018,"datastreams": [{"at": "2011-07-09 04:30:00","max_value": "0","min_value": "0","current_value": "44","id": "2859626","unit": {"type": "basicSI","label": "nano Gray per hour","symbol": "nGy/h"}}]},{"title": "Maizuru Daisen","title_jp": "まいづるし おおやま","description": "","creator": "mext","feed": "http://www.rdtn.org/feeds/station/1260000001.json","location": {"lon":135.450873622222, "lat":35.5486888944444, "name": "Kyoto"},"id":1260000001,"datastreams": [{"at": "2011-07-09 04:30:00","max_value": "0","min_value": "0","current_value": "31","id": "2859627","unit": {"type": "basicSI","label": "nano Gray per hour","symbol": "nGy/h"}}]},{"title": "Ban Yoshi Maizuru","title_jp": "まいづるし きちさか","description": "","creator": "mext","feed": "http://www.rdtn.org/feeds/station/1260000002.json","location": {"lon":135.462734236111, "lat":35.4864183972222, "name": "Kyoto"},"id":1260000002,"datastreams": [{"at": "2011-07-09 04:10:00","max_value": "0","min_value": "0","current_value": "36","id": "2859220","unit": {"type": "basicSI","label": "nano Gray per hour","symbol": "nGy/h"}}]},{"title": "?? Maizuru","title_jp": "まいづるし くらはし","description": "","creator": "mext","feed": "http://www.rdtn.org/feeds/station/1260000003.json","location": {"lon":135.393186152778, "lat":35.4570604166667, "name": "Kyoto"},"id":1260000003,"datastreams": [{"at": "2011-07-09 04:20:00","max_value": "0","min_value": "0","current_value": "46","id": "2859438","unit": {"type": "basicSI","label": "nano Gray per hour","symbol": "nGy/h"}}]},{"title": "engrossed Maizuru salt","title_jp": "まいづるし しおくみ","description": "","creator": "mext","feed": "http://www.rdtn.org/feeds/station/1260000004.json","location": {"lon":135.452179613889, "lat":35.5184422416667, "name": "Kyoto"},"id":1260000004,"datastreams": [{"at": "2011-07-09 04:30:00","max_value": "0","min_value": "0","current_value": "37","id": "2859628","unit": {"type": "basicSI","label": "nano Gray per hour","symbol": "nGy/h"}}]},{"title": "Maizuru Yasushi Oka","title_jp": "まいづるし おかやす","description": "","creator": "mext","feed": "http://www.rdtn.org/feeds/station/1260000005.json","location": {"lon":135.438014541667, "lat":35.4981942305556, "name": "Kyoto"},"id":1260000005,"datastreams": [{"at": "2011-07-09 04:40:00","max_value": "0","min_value": "0","current_value": "36","id": "2859694","unit": {"type": "basicSI","label": "nano Gray per hour","symbol": "nGy/h"}}]},{"title": "?? Ayabe City","title_jp": "あやべし おいとみ","description": "","creator": "mext","feed": "http://www.rdtn.org/feeds/station/1260000006.json","location": {"lon":135.486621169444, "lat":35.4384516916667, "name": "Kyoto"},"id":1260000006,"datastreams": [{"at": "2011-07-09 04:30:00","max_value": "0","min_value": "0","current_value": "43","id": "2859630","unit": {"type": "basicSI","label": "nano Gray per hour","symbol": "nGy/h"}}]},{"title": "Ofusaitosenta Kumatori Osaka Station","title_jp": "おおさかふりつ くまとり おふさいとせんたー きょく","description": "","creator": "mext","feed": "http://www.rdtn.org/feeds/station/1270000001.json","location": {"lon":135.350193219444, "lat":34.3876420166667, "name": "Osaka"},"id":1270000001,"datastreams": [{"at": "2011-07-09 04:40:00","max_value": "0","min_value": "0","current_value": "45","id": "2859695","unit": {"type": "basicSI","label": "nano Gray per hour","symbol": "nGy/h"}}]},{"title": "Office Nishi Elementary Kumatori Town","title_jp": "くまとりちょうりつ にししょうがっこう きょく","description": "","creator": "mext","feed": "http://www.rdtn.org/feeds/station/1270000002.json","location": {"lon":135.344171752778, "lat":34.3943410111111, "name": "Osaka"},"id":1270000002,"datastreams": [{"at": "2011-07-09 04:30:00","max_value": "-888","min_value": "-888","current_value": "55","id": "2859632","unit": {"type": "basicSI","label": "nano Gray per hour","symbol": "nGy/h"}}]},{"title": "No one ?No?? Parks","title_jp": "やまのてだいいちごうこうえん きょく","description": "","creator": "mext","feed": "http://www.rdtn.org/feeds/station/1270000003.json","location": {"lon":135.3546372, "lat":34.3955300194444, "name": "Osaka"},"id":1270000003,"datastreams": [{"at": "2011-07-09 04:20:00","max_value": "-888","min_value": "-888","current_value": "51","id": "2859444","unit": {"type": "basicSI","label": "nano Gray per hour","symbol": "nGy/h"}}]},{"title": "Nursery School Co atom authority","title_jp": "あとむきょうどうほいくえん きょく","description": "","creator": "mext","feed": "http://www.rdtn.org/feeds/station/1270000004.json","location": {"lon":135.353217905556, "lat":34.3898001388889, "name": "Osaka"},"id":1270000004,"datastreams": [{"at": "2011-07-09 04:20:00","max_value": "-888","min_value": "-888","current_value": "55","id": "2859445","unit": {"type": "basicSI","label": "nano Gray per hour","symbol": "nGy/h"}}]},{"title": "South Station Elementary Kumatori Town","title_jp": "くまとりちょうりつ みなみしょうがっこう きょく","description": "","creator": "mext","feed": "http://www.rdtn.org/feeds/station/1270000005.json","location": {"lon":135.355820419444, "lat":34.3838425916667, "name": "Osaka"},"id":1270000005,"datastreams": [{"at": "2011-07-09 04:30:00","max_value": "-888","min_value": "-888","current_value": "54","id": "2859633","unit": {"type": "basicSI","label": "nano Gray per hour","symbol": "nGy/h"}}]},{"title": "Kumatori Town Hall station","title_jp": "くまとりちょうやくば きょく","description": "","creator": "mext","feed": "http://www.rdtn.org/feeds/station/1270000006.json","location": {"lon":135.355820366667, "lat":34.4013404583333, "name": "Osaka"},"id":1270000006,"datastreams": [{"at": "2011-07-09 04:20:00","max_value": "-888","min_value": "-888","current_value": "40","id": "2859447","unit": {"type": "basicSI","label": "nano Gray per hour","symbol": "nGy/h"}}]},{"title": "Hineno Municipal Authority Water Treatment Plant Izumisano","title_jp": "いずみさのしりつ ひねのじょうすいじょう きょく","description": "","creator": "mext","feed": "http://www.rdtn.org/feeds/station/1270000007.json","location": {"lon":135.342482919444, "lat":34.3871974611111, "name": "Osaka"},"id":1270000007,"datastreams": [{"at": "2011-07-09 04:20:00","max_value": "0","min_value": "0","current_value": "47","id": "2859448","unit": {"type": "basicSI","label": "nano Gray per hour","symbol": "nGy/h"}}]},{"title": "Hineno Osaka station high school","title_jp": "おおさかふりつ ひねのこうとうがっこう きょく","description": "","creator": "mext","feed": "http://www.rdtn.org/feeds/station/1270000008.json","location": {"lon":135.338791719444, "lat":34.3896637083333, "name": "Osaka"},"id":1270000008,"datastreams": [{"at": "2011-07-09 04:20:00","max_value": "-888","min_value": "-888","current_value": "37","id": "2859449","unit": {"type": "basicSI","label": "nano Gray per hour","symbol": "nGy/h"}}]},{"title": "Sano Osaka office support schools","title_jp": "おおさかふりつ さのしえんがっこう きょく","description": "","creator": "mext","feed": "http://www.rdtn.org/feeds/station/1270000009.json","location": {"lon":135.347396261111, "lat":34.3828870166667, "name": "Osaka"},"id":1270000009,"datastreams": [{"at": "2011-07-09 04:30:00","max_value": "-888","min_value": "-888","current_value": "37","id": "2859635","unit": {"type": "basicSI","label": "nano Gray per hour","symbol": "nGy/h"}}]},{"title": "Hineno Municipal Bureau of Elementary Izumisano","title_jp": "いずみさのしりつ ひねのしょうがっこう きょく","description": "","creator": "mext","feed": "http://www.rdtn.org/feeds/station/1270000010.json","location": {"lon":135.3366555, "lat":34.3802316277778, "name": "Osaka"},"id":1270000010,"datastreams": [{"at": "2011-07-09 04:40:00","max_value": "-888","min_value": "-888","current_value": "44","id": "2859696","unit": {"type": "basicSI","label": "nano Gray per hour","symbol": "nGy/h"}}]},{"title": "Ground Station Ooike Izumisano City","title_jp": "いずみさのしりつ おおいけぐらうんど きょく","description": "","creator": "mext","feed": "http://www.rdtn.org/feeds/station/1270000011.json","location": {"lon":135.352184677778, "lat":34.37906535, "name": "Osaka"},"id":1270000011,"datastreams": [{"at": "2011-07-09 04:20:00","max_value": "-888","min_value": "-888","current_value": "54","id": "2859452","unit": {"type": "basicSI","label": "nano Gray per hour","symbol": "nGy/h"}}]},{"title": "Kinki ground station","title_jp": "きんきだいがく ぐらうんど きょく","description": "","creator": "mext","feed": "http://www.rdtn.org/feeds/station/1270000012.json","location": {"lon":135.588008347222, "lat":34.6487160472222, "name": "Osaka"},"id":1270000012,"datastreams": [{"at": "2011-07-09 04:30:00","max_value": "0","min_value": "0","current_value": "40","id": "2859637","unit": {"type": "basicSI","label": "nano Gray per hour","symbol": "nGy/h"}}]},{"title": "Municipal Bureau of Elementary ??? Higashioosaka","title_jp": "ひがしおおさかしりつ かみこさかしょうがっこう きょく","description": "","creator": "mext","feed": "http://www.rdtn.org/feeds/station/1270000013.json","location": {"lon":135.584800202778, "lat":34.6530016083333, "name": "Osaka"},"id":1270000013,"datastreams": [{"at": "2011-07-09 04:30:00","max_value": "-888","min_value": "-888","current_value": "48","id": "2859638","unit": {"type": "basicSI","label": "nano Gray per hour","symbol": "nGy/h"}}]},{"title": "Kinki University Atomic Energy Research Institute, North","title_jp": "きんきだいがく げんしりょくけんきゅうじょ きたしきち きょく","description": "","creator": "mext","feed": "http://www.rdtn.org/feeds/station/1270000014.json","location": {"lon":135.587350055556, "lat":34.6495076111111, "name": "Osaka"},"id":1270000014,"datastreams": [{"at": "2011-07-09 04:30:00","max_value": "-888","min_value": "-888","current_value": "58","id": "2859639","unit": {"type": "basicSI","label": "nano Gray per hour","symbol": "nGy/h"}}]},{"title": "Kinki University Atomic Energy Research Institute, South","title_jp": "きんきだいがく げんしりょくけんきゅうじょ みなみしきち きょく","description": "","creator": "mext","feed": "http://www.rdtn.org/feeds/station/1270000015.json","location": {"lon":135.587100091667, "lat":34.6487743555556, "name": "Osaka"},"id":1270000015,"datastreams": [{"at": "2011-07-09 04:30:00","max_value": "-888","min_value": "-888","current_value": "55","id": "2859640","unit": {"type": "basicSI","label": "nano Gray per hour","symbol": "nGy/h"}}]},{"title": "Kijiyama Misasa","title_jp": "みささちょう きじやま","description": "","creator": "mext","feed": "http://www.rdtn.org/feeds/station/1310000001.json","location": {"lon":133.888711261111, "lat":35.3176072388889, "name": "Okayama"},"id":1310000001,"datastreams": [{"at": "2011-07-09 04:30:00","max_value": "0","min_value": "0","current_value": "48","id": "2859641","unit": {"type": "basicSI","label": "nano Gray per hour","symbol": "nGy/h"}}]},{"title": "???? Kou Itimatsu","title_jp": "まつえし にしはまさだ","description": "","creator": "mext","feed": "http://www.rdtn.org/feeds/station/1320000001.json","location": {"lon":133.012950761111, "lat":35.4747931555556, "name": "Shimane"},"id":1320000001,"datastreams": [{"at": "2011-07-09 04:40:00","max_value": "0","min_value": "0","current_value": "45","id": "2859697","unit": {"type": "basicSI","label": "nano Gray per hour","symbol": "nGy/h"}}]},{"title": "Mitsu Kou Itimatsu","title_jp": "まつえし みつ","description": "","creator": "mext","feed": "http://www.rdtn.org/feeds/station/1320000002.json","location": {"lon":133.028779908333, "lat":35.5358976583333, "name": "Shimane"},"id":1320000002,"datastreams": [{"at": "2011-07-09 04:30:00","max_value": "0","min_value": "0","current_value": "40","id": "2859643","unit": {"type": "basicSI","label": "nano Gray per hour","symbol": "nGy/h"}}]},{"title": "Koura Kou Itimatsu","title_jp": "まつえし こうら","description": "","creator": "mext","feed": "http://www.rdtn.org/feeds/station/1320000003.json","location": {"lon":132.977952841667, "lat":35.5245088, "name": "Shimane"},"id":1320000003,"datastreams": [{"at": "2011-07-09 04:30:00","max_value": "0","min_value": "0","current_value": "39","id": "2859644","unit": {"type": "basicSI","label": "nano Gray per hour","symbol": "nGy/h"}}]},{"title": "Hukata Kita Kou Itimatsu","title_jp": "まつえし ふかだきた","description": "","creator": "mext","feed": "http://www.rdtn.org/feeds/station/1320000004.json","location": {"lon":132.997950308333, "lat":35.5317308888889, "name": "Shimane"},"id":1320000004,"datastreams": [{"at": "2011-07-09 04:30:00","max_value": "0","min_value": "0","current_value": "27","id": "2859645","unit": {"type": "basicSI","label": "nano Gray per hour","symbol": "nGy/h"}}]},{"title": "Kou Itimatsu","title_jp": "まつえし かたく","description": "","creator": "mext","feed": "http://www.rdtn.org/feeds/station/1320000005.json","location": {"lon":132.983229225, "lat":35.5428401333333, "name": "Shimane"},"id":1320000005,"datastreams": [{"at": "2011-07-09 04:20:00","max_value": "-888","min_value": "-888","current_value": "43","id": "2859462","unit": {"type": "basicSI","label": "nano Gray per hour","symbol": "nGy/h"}}]},{"title": "??? Kou Itimatsu","title_jp": "まつえし きたこうぶ","description": "","creator": "mext","feed": "http://www.rdtn.org/feeds/station/1320000006.json","location": {"lon":133.022947972222, "lat":35.523121475, "name": "Shimane"},"id":1320000006,"datastreams": [{"at": "2011-07-09 04:20:00","max_value": "-888","min_value": "-888","current_value": "35","id": "2859463","unit": {"type": "basicSI","label": "nano Gray per hour","symbol": "nGy/h"}}]},{"title": "???? Kou Itimatsu","title_jp": "まつえし さだほんごう","description": "","creator": "mext","feed": "http://www.rdtn.org/feeds/station/1320000007.json","location": {"lon":132.996839852778, "lat":35.5195102111111, "name": "Shimane"},"id":1320000007,"datastreams": [{"at": "2011-07-09 04:30:00","max_value": "-888","min_value": "-888","current_value": "30","id": "2859647","unit": {"type": "basicSI","label": "nano Gray per hour","symbol": "nGy/h"}}]},{"title": "Suetsugu Kou Itimatsu","title_jp": "まつえし すえつぐ","description": "","creator": "mext","feed": "http://www.rdtn.org/feeds/station/1320000008.json","location": {"lon":133.048780075, "lat":35.4678508722222, "name": "Shimane"},"id":1320000008,"datastreams": [{"at": "2011-07-09 04:30:00","max_value": "-888","min_value": "-888","current_value": "32","id": "2859648","unit": {"type": "basicSI","label": "nano Gray per hour","symbol": "nGy/h"}}]},{"title": "Oashi Kou Itimatsu","title_jp": "まつえし おわし","description": "","creator": "mext","feed": "http://www.rdtn.org/feeds/station/1320000009.json","location": {"lon":133.050165466667, "lat":35.5533963555556, "name": "Shimane"},"id":1320000009,"datastreams": [{"at": "2011-07-09 04:30:00","max_value": "-888","min_value": "-888","current_value": "37","id": "2859649","unit": {"type": "basicSI","label": "nano Gray per hour","symbol": "nGy/h"}}]},{"title": "??? Kou Itimatsu","title_jp": "まつえし かみこうぶ","description": "","creator": "mext","feed": "http://www.rdtn.org/feeds/station/1320000023.json","location": {"lon":133.042667527778, "lat":35.5270102416667, "name": "Shimane"},"id":1320000023,"datastreams": [{"at": "2011-07-09 04:30:00","max_value": "-888","min_value": "-888","current_value": "36","id": "2859650","unit": {"type": "basicSI","label": "nano Gray per hour","symbol": "nGy/h"}}]},{"title": "Kou Itimatsu Tei","title_jp": "まつえし たゆ","description": "","creator": "mext","feed": "http://www.rdtn.org/feeds/station/1320000024.json","location": {"lon":132.972397313889, "lat":35.5378403055556, "name": "Shimane"},"id":1320000024,"datastreams": [{"at": "2011-07-09 04:20:00","max_value": "-888","min_value": "-888","current_value": "41","id": "2859468","unit": {"type": "basicSI","label": "nano Gray per hour","symbol": "nGy/h"}}]},{"title": "Kagamino town","title_jp": "かがみのちょう にんぎょうとうげ","description": "","creator": "mext","feed": "http://www.rdtn.org/feeds/station/1330000001.json","location": {"lon":133.931932172222, "lat":35.3133031555556, "name": "Okayama"},"id":1330000001,"datastreams": [{"at": "2011-07-09 04:30:00","max_value": "0","min_value": "0","current_value": "59","id": "2859652","unit": {"type": "basicSI","label": "nano Gray per hour","symbol": "nGy/h"}}]},{"title": "Department ?? Kagamino town","title_jp": "かがみのちょう あかわせ","description": "","creator": "mext","feed": "http://www.rdtn.org/feeds/station/1330000002.json","location": {"lon":133.958704927778, "lat":35.3198300722222, "name": "Okayama"},"id":1330000002,"datastreams": [{"at": "2011-07-09 04:30:00","max_value": "0","min_value": "0","current_value": "45","id": "2859653","unit": {"type": "basicSI","label": "nano Gray per hour","symbol": "nGy/h"}}]},{"title": "Tennou Kagamino town","title_jp": "かがみのちょう てんのう","description": "","creator": "mext","feed": "http://www.rdtn.org/feeds/station/1330000003.json","location": {"lon":133.942595525, "lat":35.2998322888889, "name": "Okayama"},"id":1330000003,"datastreams": [{"at": "2011-07-09 04:30:00","max_value": "0","min_value": "0","current_value": "56","id": "2859654","unit": {"type": "basicSI","label": "nano Gray per hour","symbol": "nGy/h"}}]},{"title": "overflow town Ikata nine towns","title_jp": "いかたちょう くちょうごし","description": "","creator": "mext","feed": "http://www.rdtn.org/feeds/station/1380000001.json","location": {"lon":132.309175316667, "lat":33.4816336833333, "name": "Ehime"},"id":1380000001,"datastreams": [{"at": "2011-07-09 04:30:00","max_value": "0","min_value": "0","current_value": "15","id": "2859655","unit": {"type": "basicSI","label": "nano Gray per hour","symbol": "nGy/h"}}]},{"title": "city Ikata nine towns","title_jp": "いかたちょう くちょう","description": "","creator": "mext","feed": "http://www.rdtn.org/feeds/station/1380000002.json","location": {"lon":132.3101614, "lat":33.4762843333333, "name": "Ehime"},"id":1380000002,"datastreams": [{"at": "2011-07-09 04:30:00","max_value": "-888","min_value": "-888","current_value": "22","id": "2859656","unit": {"type": "basicSI","label": "nano Gray per hour","symbol": "nGy/h"}}]},{"title": "?? Ikata town","title_jp": "いかたちょう みなとうら","description": "","creator": "mext","feed": "http://www.rdtn.org/feeds/station/1380000003.json","location": {"lon":132.354559155556, "lat":33.4883482527778, "name": "Ehime"},"id":1380000003,"datastreams": [{"at": "2011-07-09 04:30:00","max_value": "-888","min_value": "-888","current_value": "14","id": "2859657","unit": {"type": "basicSI","label": "nano Gray per hour","symbol": "nGy/h"}}]},{"title": "Ikata ??? town","title_jp": "いかたちょう いかたごし","description": "","creator": "mext","feed": "http://www.rdtn.org/feeds/station/1380000031.json","location": {"lon":132.342657175, "lat":33.5013409138889, "name": "Ehime"},"id":1380000031,"datastreams": [{"at": "2011-07-09 04:30:00","max_value": "-888","min_value": "-888","current_value": "18","id": "2859658","unit": {"type": "basicSI","label": "nano Gray per hour","symbol": "nGy/h"}}]},{"title": "??? Ikata town","title_jp": "いかたちょう かわながた","description": "","creator": "mext","feed": "http://www.rdtn.org/feeds/station/1380000032.json","location": {"lon":132.336847094444, "lat":33.4836203638889, "name": "Ehime"},"id":1380000032,"datastreams": [{"at": "2011-07-09 04:30:00","max_value": "-888","min_value": "-888","current_value": "21","id": "2859659","unit": {"type": "basicSI","label": "nano Gray per hour","symbol": "nGy/h"}}]},{"title": "??? Ikata town","title_jp": "いかたちょう とよのうら","description": "","creator": "mext","feed": "http://www.rdtn.org/feeds/station/1380000033.json","location": {"lon":132.323340558333, "lat":33.4719546944444, "name": "Ehime"},"id":1380000033,"datastreams": [{"at": "2011-07-09 04:20:00","max_value": "-888","min_value": "-888","current_value": "11","id": "2859477","unit": {"type": "basicSI","label": "nano Gray per hour","symbol": "nGy/h"}}]},{"title": "additional week Ikata town","title_jp": "いかたちょう かしゅう","description": "","creator": "mext","feed": "http://www.rdtn.org/feeds/station/1380000034.json","location": {"lon":132.287790161111, "lat":33.4647321888889, "name": "Ehime"},"id":1380000034,"datastreams": [{"at": "2011-07-09 04:30:00","max_value": "-888","min_value": "-888","current_value": "23","id": "2859660","unit": {"type": "basicSI","label": "nano Gray per hour","symbol": "nGy/h"}}]},{"title": "Taisei town Ikata","title_jp": "いかたちょう たいせい","description": "","creator": "mext","feed": "http://www.rdtn.org/feeds/station/1380000035.json","location": {"lon":132.275569011111, "lat":33.4730641361111, "name": "Ehime"},"id":1380000035,"datastreams": [{"at": "2011-07-09 04:40:00","max_value": "-888","min_value": "-888","current_value": "21","id": "2859698","unit": {"type": "basicSI","label": "nano Gray per hour","symbol": "nGy/h"}}]},{"title": "Genkai Town - Imamura","title_jp": "げんかいちょう いまむら","description": "","creator": "mext","feed": "http://www.rdtn.org/feeds/station/1410000001.json","location": {"lon":129.839385388889, "lat":33.5138421166667, "name": "Saga"},"id":1410000001,"datastreams": [{"at": "2011-07-09 04:20:00","max_value": "0","min_value": "0","current_value": "26","id": "2859480","unit": {"type": "basicSI","label": "nano Gray per hour","symbol": "nGy/h"}}]},{"title": "Genkai Town - Hirao","title_jp": "げんかいちょう ひらお","description": "","creator": "mext","feed": "http://www.rdtn.org/feeds/station/1410000002.json","location": {"lon":129.845662986111, "lat":33.4960662694444, "name": "Saga"},"id":1410000002,"datastreams": [{"at": "2011-07-09 04:30:00","max_value": "-888","min_value": "-888","current_value": "29","id": "2859662","unit": {"type": "basicSI","label": "nano Gray per hour","symbol": "nGy/h"}}]},{"title": "Genkai Town - Kushi","title_jp": "げんかいちょう くし","description": "","creator": "mext","feed": "http://www.rdtn.org/feeds/station/1410000003.json","location": {"lon":129.853550775, "lat":33.5163421194444, "name": "Saga"},"id":1410000003,"datastreams": [{"at": "2011-07-09 04:30:00","max_value": "-888","min_value": "-888","current_value": "29","id": "2859663","unit": {"type": "basicSI","label": "nano Gray per hour","symbol": "nGy/h"}}]},{"title": "first of Karatsu City","title_jp": "からつし さきべ","description": "","creator": "mext","feed": "http://www.rdtn.org/feeds/station/1410000009.json","location": {"lon":129.860841497222, "lat":33.5355510333333, "name": "Saga"},"id":1410000009,"datastreams": [{"at": "2011-07-09 04:30:00","max_value": "-888","min_value": "-888","current_value": "29","id": "2859664","unit": {"type": "basicSI","label": "nano Gray per hour","symbol": "nGy/h"}}]},{"title": "Genkai Town - Hokawatsuura","title_jp": "げんかいちょう ほかわづうら","description": "","creator": "mext","feed": "http://www.rdtn.org/feeds/station/1410000010.json","location": {"lon":129.847915188889, "lat":33.513584025, "name": "Saga"},"id":1410000010,"datastreams": [{"at": "2011-07-09 04:40:00","max_value": "-888","min_value": "-888","current_value": "32","id": "2859699","unit": {"type": "basicSI","label": "nano Gray per hour","symbol": "nGy/h"}}]},{"title": "where Karatsu Tomari Miyak","title_jp": "からつし きょうどまりさき","description": "","creator": "mext","feed": "http://www.rdtn.org/feeds/station/1410000011.json","location": {"lon":129.825775944444, "lat":33.4765200722222, "name": "Saga"},"id":1410000011,"datastreams": [{"at": "2011-07-09 04:30:00","max_value": "-888","min_value": "-888","current_value": "27","id": "2859666","unit": {"type": "basicSI","label": "nano Gray per hour","symbol": "nGy/h"}}]},{"title": "Takashima City Office","title_jp": "たかしままちきょく","description": "","creator": "mext","feed": "http://www.rdtn.org/feeds/station/1420000001.json","location": {"lon":129.761615302778, "lat":33.4482914194444, "name": "Saga"},"id":1420000001,"datastreams": [{"at": "2011-07-09 04:20:00","max_value": "0","min_value": "0","current_value": "21","id": "2859486","unit": {"type": "basicSI","label": "nano Gray per hour","symbol": "nGy/h"}}]},{"title": "??? Satsuma Sendai City","title_jp": "さつませんだいし ぐみさき","description": "","creator": "mext","feed": "http://www.rdtn.org/feeds/station/1460000001.json","location": {"lon":130.199130825, "lat":31.8395672166667, "name": "Kagoshima"},"id":1460000001,"datastreams": [{"at": "2011-07-09 04:30:00","max_value": "0","min_value": "0","current_value": "24","id": "2859667","unit": {"type": "basicSI","label": "nano Gray per hour","symbol": "nGy/h"}}]},{"title": "Satsuma Sendai City, Ueno","title_jp": "さつませんだいし うえの","description": "","creator": "mext","feed": "http://www.rdtn.org/feeds/station/1460000002.json","location": {"lon":130.196909447222, "lat":31.8140141, "name": "Kagoshima"},"id":1460000002,"datastreams": [{"at": "2011-07-09 04:20:00","max_value": "0","min_value": "0","current_value": "33","id": "2859488","unit": {"type": "basicSI","label": "nano Gray per hour","symbol": "nGy/h"}}]},{"title": "Satsuma?? Sendai City","title_jp": "さつませんだいし よりた","description": "","creator": "mext","feed": "http://www.rdtn.org/feeds/station/1460000003.json","location": {"lon":130.181077216667, "lat":31.8154024972222, "name": "Kagoshima"},"id":1460000003,"datastreams": [{"at": "2011-07-09 04:30:00","max_value": "0","min_value": "0","current_value": "27","id": "2859668","unit": {"type": "basicSI","label": "nano Gray per hour","symbol": "nGy/h"}}]},{"title": "Satsuma Sendai City, Port","title_jp": "さつませんだいし みなと","description": "","creator": "mext","feed": "http://www.rdtn.org/feeds/station/1460000004.json","location": {"lon":130.201908091667, "lat":31.8515104111111, "name": "Kagoshima"},"id":1460000004,"datastreams": [{"at": "2011-07-09 04:30:00","max_value": "0","min_value": "0","current_value": "31","id": "2859669","unit": {"type": "basicSI","label": "nano Gray per hour","symbol": "nGy/h"}}]},{"title": "Satsuma Sendai City, Kou Takashi","title_jp": "さつませんだいし たかえ","description": "","creator": "mext","feed": "http://www.rdtn.org/feeds/station/1460000005.json","location": {"lon":130.251349197222, "lat":31.8237368583333, "name": "Kagoshima"},"id":1460000005,"datastreams": [{"at": "2011-07-09 04:30:00","max_value": "0","min_value": "0","current_value": "32","id": "2859670","unit": {"type": "basicSI","label": "nano Gray per hour","symbol": "nGy/h"}}]},{"title": "Satsuma Sendai City, Monitoring Center","title_jp": "さつませんだいし かんしせんたー","description": "","creator": "mext","feed": "http://www.rdtn.org/feeds/station/1460000006.json","location": {"lon":130.306343588889, "lat":31.812905675, "name": "Kagoshima"},"id":1460000006,"datastreams": [{"at": "2011-07-09 04:30:00","max_value": "0","min_value": "0","current_value": "42","id": "2859671","unit": {"type": "basicSI","label": "nano Gray per hour","symbol": "nGy/h"}}]},{"title": "Satsuma Obira Sendai City","title_jp": "さつませんだいし こだいら","description": "","creator": "mext","feed": "http://www.rdtn.org/feeds/station/1460000007.json","location": {"lon":130.194964772222, "lat":31.8276238833333, "name": "Kagoshima"},"id":1460000007,"datastreams": [{"at": "2011-07-09 04:30:00","max_value": "0","min_value": "0","current_value": "29","id": "2859672","unit": {"type": "basicSI","label": "nano Gray per hour","symbol": "nGy/h"}}]}], "itemsPerPage": 293, "startIndex": 0, "totalResults": 293}